[{"name":"Aachen","id":"1","nametype":"Valid","recclass":"L5","mass":"21","fall":"Fell","year":"1880-01-01T00:00:00.000","reclat":"50.775000","reclong":"6.083330","geolocation":{"type":"Point","coordinates":[6.08333,50.775]}}
,{"name":"Aarhus","id":"2","nametype":"Valid","recclass":"H6","mass":"720","fall":"Fell","year":"1951-01-01T00:00:00.000","reclat":"56.183330","reclong":"10.233330","geolocation":{"type":"Point","coordinates":[10.23333,56.18333]}}
,{"name":"Abee","id":"6","nametype":"Valid","recclass":"EH4","mass":"107000","fall":"Fell","year":"1952-01-01T00:00:00.000","reclat":"54.216670","reclong":"-113.000000","geolocation":{"type":"Point","coordinates":[-113,54.21667]}}
,{"name":"Acapulco","id":"10","nametype":"Valid","recclass":"Acapulcoite","mass":"1914","fall":"Fell","year":"1976-01-01T00:00:00.000","reclat":"16.883330","reclong":"-99.900000","geolocation":{"type":"Point","coordinates":[-99.9,16.88333]}}
,{"name":"Achiras","id":"370","nametype":"Valid","recclass":"L6","mass":"780","fall":"Fell","year":"1902-01-01T00:00:00.000","reclat":"-33.166670","reclong":"-64.950000","geolocation":{"type":"Point","coordinates":[-64.95,-33.16667]}}
,{"name":"Adhi Kot","id":"379","nametype":"Valid","recclass":"EH4","mass":"4239","fall":"Fell","year":"1919-01-01T00:00:00.000","reclat":"32.100000","reclong":"71.800000","geolocation":{"type":"Point","coordinates":[71.8,32.1]}}
,{"name":"Adzhi-Bogdo (stone)","id":"390","nametype":"Valid","recclass":"LL3-6","mass":"910","fall":"Fell","year":"1949-01-01T00:00:00.000","reclat":"44.833330","reclong":"95.166670","geolocation":{"type":"Point","coordinates":[95.16667,44.83333]}}
,{"name":"Agen","id":"392","nametype":"Valid","recclass":"H5","mass":"30000","fall":"Fell","year":"1814-01-01T00:00:00.000","reclat":"44.216670","reclong":"0.616670","geolocation":{"type":"Point","coordinates":[0.61667,44.21667]}}
,{"name":"Aguada","id":"398","nametype":"Valid","recclass":"L6","mass":"1620","fall":"Fell","year":"1930-01-01T00:00:00.000","reclat":"-31.600000","reclong":"-65.233330","geolocation":{"type":"Point","coordinates":[-65.23333,-31.6]}}
,{"name":"Aguila Blanca","id":"417","nametype":"Valid","recclass":"L","mass":"1440","fall":"Fell","year":"1920-01-01T00:00:00.000","reclat":"-30.866670","reclong":"-64.550000","geolocation":{"type":"Point","coordinates":[-64.55,-30.86667]}}
,{"name":"Aioun el Atrouss","id":"423","nametype":"Valid","recclass":"Diogenite-pm","mass":"1000","fall":"Fell","year":"1974-01-01T00:00:00.000","reclat":"16.398060","reclong":"-9.570280","geolocation":{"type":"Point","coordinates":[-9.57028,16.39806]}}
,{"name":"Aïr","id":"424","nametype":"Valid","recclass":"L6","mass":"24000","fall":"Fell","year":"1925-01-01T00:00:00.000","reclat":"19.083330","reclong":"8.383330","geolocation":{"type":"Point","coordinates":[8.38333,19.08333]}}
,{"name":"Aire-sur-la-Lys","id":"425","nametype":"Valid","recclass":"Unknown","fall":"Fell","year":"1769-01-01T00:00:00.000","reclat":"50.666670","reclong":"2.333330","geolocation":{"type":"Point","coordinates":[2.33333,50.66667]}}
,{"name":"Akaba","id":"426","nametype":"Valid","recclass":"L6","mass":"779","fall":"Fell","year":"1949-01-01T00:00:00.000","reclat":"29.516670","reclong":"35.050000","geolocation":{"type":"Point","coordinates":[35.05,29.51667]}}
,{"name":"Akbarpur","id":"427","nametype":"Valid","recclass":"H4","mass":"1800","fall":"Fell","year":"1838-01-01T00:00:00.000","reclat":"29.716670","reclong":"77.950000","geolocation":{"type":"Point","coordinates":[77.95,29.71667]}}
,{"name":"Akwanga","id":"432","nametype":"Valid","recclass":"H","mass":"3000","fall":"Fell","year":"1959-01-01T00:00:00.000","reclat":"8.916670","reclong":"8.433330","geolocation":{"type":"Point","coordinates":[8.43333,8.91667]}}
,{"name":"Akyumak","id":"433","nametype":"Valid","recclass":"Iron, IVA","mass":"50000","fall":"Fell","year":"1981-01-01T00:00:00.000","reclat":"39.916670","reclong":"42.816670","geolocation":{"type":"Point","coordinates":[42.81667,39.91667]}}
,{"name":"Al Rais","id":"446","nametype":"Valid","recclass":"CR2-an","mass":"160","fall":"Fell","year":"1957-01-01T00:00:00.000","reclat":"24.416670","reclong":"39.516670","geolocation":{"type":"Point","coordinates":[39.51667,24.41667]}}
,{"name":"Al Zarnkh","id":"447","nametype":"Valid","recclass":"LL5","mass":"700","fall":"Fell","year":"2001-01-01T00:00:00.000","reclat":"13.660330","reclong":"28.960000","geolocation":{"type":"Point","coordinates":[28.96,13.66033]}}
,{"name":"Alais","id":"448","nametype":"Valid","recclass":"CI1","mass":"6000","fall":"Fell","year":"1806-01-01T00:00:00.000","reclat":"44.116670","reclong":"4.083330","geolocation":{"type":"Point","coordinates":[4.08333,44.11667]}}
,{"name":"Albareto","id":"453","nametype":"Valid","recclass":"L/LL4","mass":"2000","fall":"Fell","year":"1766-01-01T00:00:00.000","reclat":"44.650000","reclong":"11.016670","geolocation":{"type":"Point","coordinates":[11.01667,44.65]}}
,{"name":"Alberta","id":"454","nametype":"Valid","recclass":"L","mass":"625","fall":"Fell","year":"1949-01-01T00:00:00.000","reclat":"2.000000","reclong":"22.666670","geolocation":{"type":"Point","coordinates":[22.66667,2]}}
,{"name":"Alby sur Chéran","id":"458","nametype":"Valid","recclass":"Eucrite-mmict","mass":"252","fall":"Fell","year":"2002-01-01T00:00:00.000","reclat":"45.821330","reclong":"6.015330","geolocation":{"type":"Point","coordinates":[6.01533,45.82133]}}
,{"name":"Aldsworth","id":"461","nametype":"Valid","recclass":"LL5","mass":"700","fall":"Fell","year":"1835-01-01T00:00:00.000","reclat":"51.783330","reclong":"-1.783330","geolocation":{"type":"Point","coordinates":[-1.78333,51.78333]}}
,{"name":"Aleppo","id":"462","nametype":"Valid","recclass":"L6","mass":"3200","fall":"Fell","year":"1873-01-01T00:00:00.000","reclat":"36.233330","reclong":"37.133330","geolocation":{"type":"Point","coordinates":[37.13333,36.23333]}}
,{"name":"Alessandria","id":"463","nametype":"Valid","recclass":"H5","mass":"908","fall":"Fell","year":"1860-01-01T00:00:00.000","reclat":"44.883330","reclong":"8.750000","geolocation":{"type":"Point","coordinates":[8.75,44.88333]}}
,{"name":"Alexandrovsky","id":"465","nametype":"Valid","recclass":"H4","mass":"9251","fall":"Fell","year":"1900-01-01T00:00:00.000","reclat":"50.950000","reclong":"31.816670","geolocation":{"type":"Point","coordinates":[31.81667,50.95]}}
,{"name":"Alfianello","id":"466","nametype":"Valid","recclass":"L6","mass":"228000","fall":"Fell","year":"1883-01-01T00:00:00.000","reclat":"45.266670","reclong":"10.150000","geolocation":{"type":"Point","coordinates":[10.15,45.26667]}}
,{"name":"Allegan","id":"2276","nametype":"Valid","recclass":"H5","mass":"32000","fall":"Fell","year":"1899-01-01T00:00:00.000","reclat":"42.533330","reclong":"-85.883330","geolocation":{"type":"Point","coordinates":[-85.88333,42.53333]},":@computed_region_cbhk_fwbd":"50",":@computed_region_nnqa_25f4":"429"}
,{"name":"Allende","id":"2278","nametype":"Valid","recclass":"CV3","mass":"2000000","fall":"Fell","year":"1969-01-01T00:00:00.000","reclat":"26.966670","reclong":"-105.316670","geolocation":{"type":"Point","coordinates":[-105.31667,26.96667]}}
,{"name":"Almahata Sitta","id":"48915","nametype":"Valid","recclass":"Ureilite-an","mass":"3950","fall":"Fell","year":"2008-01-01T00:00:00.000","reclat":"20.745750","reclong":"32.412750","geolocation":{"type":"Point","coordinates":[32.41275,20.74575]}}
,{"name":"Alta'ameem","id":"2284","nametype":"Valid","recclass":"LL5","mass":"6000","fall":"Fell","year":"1977-01-01T00:00:00.000","reclat":"35.273330","reclong":"44.215560","geolocation":{"type":"Point","coordinates":[44.21556,35.27333]}}
,{"name":"Ambapur Nagla","id":"2290","nametype":"Valid","recclass":"H5","mass":"6400","fall":"Fell","year":"1895-01-01T00:00:00.000","reclat":"27.666670","reclong":"78.250000","geolocation":{"type":"Point","coordinates":[78.25,27.66667]}}
,{"name":"Andhara","id":"2294","nametype":"Valid","recclass":"Stone-uncl","mass":"2700","fall":"Fell","year":"1880-01-01T00:00:00.000","reclat":"26.583330","reclong":"85.566670","geolocation":{"type":"Point","coordinates":[85.56667,26.58333]}}
,{"name":"Andover","id":"2295","nametype":"Valid","recclass":"L6","mass":"3200","fall":"Fell","year":"1898-01-01T00:00:00.000","reclat":"44.616670","reclong":"-70.750000","geolocation":{"type":"Point","coordinates":[-70.75,44.61667]},":@computed_region_cbhk_fwbd":"49",":@computed_region_nnqa_25f4":"1723"}
,{"name":"Andreevka","id":"2296","nametype":"Valid","recclass":"L3","mass":"600","fall":"Fell","year":"1969-01-01T00:00:00.000","reclat":"48.700000","reclong":"37.500000","geolocation":{"type":"Point","coordinates":[37.5,48.7]}}
,{"name":"Andura","id":"2298","nametype":"Valid","recclass":"H6","mass":"17900","fall":"Fell","year":"1939-01-01T00:00:00.000","reclat":"20.883330","reclong":"76.866670","geolocation":{"type":"Point","coordinates":[76.86667,20.88333]}}
,{"name":"Northwest Africa 5815","id":"50693","nametype":"Valid","recclass":"L5","mass":"256.8","fall":"Found","reclat":"0.000000","reclong":"0.000000","geolocation":{"type":"Point","coordinates":[0,0]}}
,{"name":"Angers","id":"2301","nametype":"Valid","recclass":"L6","fall":"Fell","year":"1822-01-01T00:00:00.000","reclat":"47.466670","reclong":"-0.550000","geolocation":{"type":"Point","coordinates":[-0.55,47.46667]}}
,{"name":"Angra dos Reis (stone)","id":"2302","nametype":"Valid","recclass":"Angrite","mass":"1500","fall":"Fell","year":"1869-01-01T00:00:00.000","reclat":"-22.966670","reclong":"-44.316670","geolocation":{"type":"Point","coordinates":[-44.31667,-22.96667]}}
,{"name":"Ankober","id":"2304","nametype":"Valid","recclass":"H4","mass":"6500","fall":"Fell","year":"1942-01-01T00:00:00.000","reclat":"9.533330","reclong":"39.716670","geolocation":{"type":"Point","coordinates":[39.71667,9.53333]}}
,{"name":"Anlong","id":"2305","nametype":"Valid","recclass":"H5","mass":"2500","fall":"Fell","year":"1971-01-01T00:00:00.000","reclat":"25.150000","reclong":"105.183330","geolocation":{"type":"Point","coordinates":[105.18333,25.15]}}
,{"name":"Aomori","id":"2313","nametype":"Valid","recclass":"L6","mass":"320","fall":"Fell","year":"1984-01-01T00:00:00.000","reclat":"40.810560","reclong":"140.785560","geolocation":{"type":"Point","coordinates":[140.78556,40.81056]}}
,{"name":"Appley Bridge","id":"2318","nametype":"Valid","recclass":"LL6","mass":"15000","fall":"Fell","year":"1914-01-01T00:00:00.000","reclat":"53.583330","reclong":"-2.716670","geolocation":{"type":"Point","coordinates":[-2.71667,53.58333]}}
,{"name":"Apt","id":"2320","nametype":"Valid","recclass":"L6","mass":"3200","fall":"Fell","year":"1803-01-01T00:00:00.000","reclat":"43.866670","reclong":"5.383330","geolocation":{"type":"Point","coordinates":[5.38333,43.86667]}}
,{"name":"Arbol Solo","id":"2325","nametype":"Valid","recclass":"H5","mass":"810","fall":"Fell","year":"1954-01-01T00:00:00.000","reclat":"-33.000000","reclong":"-66.000000","geolocation":{"type":"Point","coordinates":[-66,-33]}}
,{"name":"Archie","id":"2329","nametype":"Valid","recclass":"H6","mass":"5070","fall":"Fell","year":"1932-01-01T00:00:00.000","reclat":"38.500000","reclong":"-94.300000","geolocation":{"type":"Point","coordinates":[-94.3,38.5]},":@computed_region_cbhk_fwbd":"18",":@computed_region_nnqa_25f4":"2697"}
,{"name":"Arroyo Aguiar","id":"2340","nametype":"Valid","recclass":"H5","mass":"7450","fall":"Fell","year":"1950-01-01T00:00:00.000","reclat":"-31.416670","reclong":"-60.666670","geolocation":{"type":"Point","coordinates":[-60.66667,-31.41667]}}
,{"name":"Asco","id":"2345","nametype":"Valid","recclass":"H6","mass":"41","fall":"Fell","year":"1805-01-01T00:00:00.000","reclat":"42.450000","reclong":"9.033330","geolocation":{"type":"Point","coordinates":[9.03333,42.45]}}
,{"name":"Ash Creek","id":"48954","nametype":"Valid","recclass":"L6","mass":"9500","fall":"Fell","year":"2009-01-01T00:00:00.000","reclat":"31.805000","reclong":"-97.010000","geolocation":{"type":"Point","coordinates":[-97.01,31.805]},":@computed_region_cbhk_fwbd":"23",":@computed_region_nnqa_25f4":"774"}
,{"name":"Ashdon","id":"2346","nametype":"Valid","recclass":"L6","mass":"1300","fall":"Fell","year":"1923-01-01T00:00:00.000","reclat":"52.050000","reclong":"0.300000","geolocation":{"type":"Point","coordinates":[0.3,52.05]}}
,{"name":"Assisi","id":"2353","nametype":"Valid","recclass":"H5","mass":"2000","fall":"Fell","year":"1886-01-01T00:00:00.000","reclat":"43.033330","reclong":"12.550000","geolocation":{"type":"Point","coordinates":[12.55,43.03333]}}
,{"name":"Atarra","id":"4883","nametype":"Valid","recclass":"L4","mass":"1280","fall":"Fell","year":"1920-01-01T00:00:00.000","reclat":"25.254170","reclong":"80.625000","geolocation":{"type":"Point","coordinates":[80.625,25.25417]}}
,{"name":"Atemajac","id":"4884","nametype":"Valid","recclass":"L6","mass":"94.2","fall":"Fell","year":"1896-01-01T00:00:00.000","reclat":"20.066670","reclong":"-103.666670","geolocation":{"type":"Point","coordinates":[-103.66667,20.06667]}}
,{"name":"Athens","id":"4885","nametype":"Valid","recclass":"LL6","mass":"265","fall":"Fell","year":"1933-01-01T00:00:00.000","reclat":"34.750000","reclong":"-87.000000","geolocation":{"type":"Point","coordinates":[-87,34.75]},":@computed_region_cbhk_fwbd":"29",":@computed_region_nnqa_25f4":"3134"}
,{"name":"Atoka","id":"4888","nametype":"Valid","recclass":"L6","mass":"1384.2","fall":"Fell","year":"1945-01-01T00:00:00.000","reclat":"34.316670","reclong":"-96.150000","geolocation":{"type":"Point","coordinates":[-96.15,34.31667]},":@computed_region_cbhk_fwbd":"20",":@computed_region_nnqa_25f4":"602"}
,{"name":"Aubres","id":"4893","nametype":"Valid","recclass":"Aubrite","mass":"800","fall":"Fell","year":"1836-01-01T00:00:00.000","reclat":"44.383330","reclong":"5.166670","geolocation":{"type":"Point","coordinates":[5.16667,44.38333]}}
,{"name":"Aumale","id":"4899","nametype":"Valid","recclass":"L6","mass":"50000","fall":"Fell","year":"1865-01-01T00:00:00.000","reclat":"36.166670","reclong":"3.666670","geolocation":{"type":"Point","coordinates":[3.66667,36.16667]}}
,{"name":"Aumieres","id":"4900","nametype":"Valid","recclass":"L6","mass":"2000","fall":"Fell","year":"1842-01-01T00:00:00.000","reclat":"44.333330","reclong":"3.233330","geolocation":{"type":"Point","coordinates":[3.23333,44.33333]}}
,{"name":"Ausson","id":"4903","nametype":"Valid","recclass":"L5","mass":"50000","fall":"Fell","year":"1858-01-01T00:00:00.000","reclat":"43.083330","reclong":"0.583330","geolocation":{"type":"Point","coordinates":[0.58333,43.08333]}}
,{"name":"Avanhandava","id":"4905","nametype":"Valid","recclass":"H4","mass":"9330","fall":"Fell","year":"1952-01-01T00:00:00.000","reclat":"-21.460280","reclong":"-49.950830","geolocation":{"type":"Point","coordinates":[-49.95083,-21.46028]}}
,{"name":"Avce","id":"4906","nametype":"Valid","recclass":"Iron, IIAB","mass":"1230","fall":"Fell","year":"1908-01-01T00:00:00.000","reclat":"46.000000","reclong":"13.500000","geolocation":{"type":"Point","coordinates":[13.5,46]}}
,{"name":"Avilez","id":"4907","nametype":"Valid","recclass":"H","mass":"146","fall":"Fell","year":"1855-01-01T00:00:00.000","reclat":"25.000000","reclong":"-103.500000","geolocation":{"type":"Point","coordinates":[-103.5,25]}}
,{"name":"Awere","id":"4910","nametype":"Valid","recclass":"L4","mass":"134","fall":"Fell","year":"1968-01-01T00:00:00.000","reclat":"2.716670","reclong":"32.833330","geolocation":{"type":"Point","coordinates":[32.83333,2.71667]}}
,{"name":"Aztec","id":"4913","nametype":"Valid","recclass":"L6","mass":"2830","fall":"Fell","year":"1938-01-01T00:00:00.000","reclat":"36.800000","reclong":"-108.000000","geolocation":{"type":"Point","coordinates":[-108,36.8]},":@computed_region_cbhk_fwbd":"11",":@computed_region_nnqa_25f4":"1989"}
,{"name":"Bachmut","id":"4917","nametype":"Valid","recclass":"L6","mass":"18000","fall":"Fell","year":"1814-01-01T00:00:00.000","reclat":"48.600000","reclong":"38.000000","geolocation":{"type":"Point","coordinates":[38,48.6]}}
,{"name":"Bahjoi","id":"4922","nametype":"Valid","recclass":"Iron, IAB-sLL","mass":"10322","fall":"Fell","year":"1934-01-01T00:00:00.000","reclat":"28.483330","reclong":"78.500000","geolocation":{"type":"Point","coordinates":[78.5,28.48333]}}
,{"name":"Bald Mountain","id":"4925","nametype":"Valid","recclass":"L4","mass":"3700","fall":"Fell","year":"1929-01-01T00:00:00.000","reclat":"35.966670","reclong":"-82.483330","geolocation":{"type":"Point","coordinates":[-82.48333,35.96667]},":@computed_region_cbhk_fwbd":"37",":@computed_region_nnqa_25f4":"2373"}
,{"name":"Baldwyn","id":"4926","nametype":"Valid","recclass":"L6","mass":"345","fall":"Fell","year":"1922-01-01T00:00:00.000","reclat":"34.500000","reclong":"-88.666670","geolocation":{"type":"Point","coordinates":[-88.66667,34.5]},":@computed_region_cbhk_fwbd":"32",":@computed_region_nnqa_25f4":"495"}
,{"name":"Bali","id":"4928","nametype":"Valid","recclass":"CV3","mass":"1000","fall":"Fell","year":"1907-01-01T00:00:00.000","reclat":"5.383330","reclong":"16.383330","geolocation":{"type":"Point","coordinates":[16.38333,5.38333]}}
,{"name":"Ban Rong Du","id":"4934","nametype":"Valid","recclass":"Iron, ungrouped","mass":"16700","fall":"Fell","year":"1993-01-01T00:00:00.000","reclat":"16.666670","reclong":"101.183330","geolocation":{"type":"Point","coordinates":[101.18333,16.66667]}}
,{"name":"Bandong","id":"4935","nametype":"Valid","recclass":"LL6","mass":"11500","fall":"Fell","year":"1871-01-01T00:00:00.000","reclat":"-6.916670","reclong":"107.600000","geolocation":{"type":"Point","coordinates":[107.6,-6.91667]}}
,{"name":"Bansur","id":"4936","nametype":"Valid","recclass":"L6","mass":"15000","fall":"Fell","year":"1892-01-01T00:00:00.000","reclat":"27.700000","reclong":"76.333330","geolocation":{"type":"Point","coordinates":[76.33333,27.7]}}
,{"name":"Banswal","id":"4937","nametype":"Valid","recclass":"L5","mass":"14","fall":"Fell","year":"1913-01-01T00:00:00.000","reclat":"30.400000","reclong":"78.200000","geolocation":{"type":"Point","coordinates":[78.2,30.4]}}
,{"name":"Banten","id":"4938","nametype":"Valid","recclass":"CM2","mass":"629","fall":"Fell","year":"1933-01-01T00:00:00.000","reclat":"-6.333330","reclong":"106.000000","geolocation":{"type":"Point","coordinates":[106,-6.33333]}}
,{"name":"Barbotan","id":"4942","nametype":"Valid","recclass":"H5","mass":"6400","fall":"Fell","year":"1790-01-01T00:00:00.000","reclat":"43.950000","reclong":"-0.050000","geolocation":{"type":"Point","coordinates":[-0.05,43.95]}}
,{"name":"Barcelona (stone)","id":"4944","nametype":"Valid","recclass":"OC","fall":"Fell","year":"1704-01-01T00:00:00.000","reclat":"41.366670","reclong":"2.166670","geolocation":{"type":"Point","coordinates":[2.16667,41.36667]}}
,{"name":"Barea","id":"4946","nametype":"Valid","recclass":"Mesosiderite-A1","mass":"3200","fall":"Fell","year":"1842-01-01T00:00:00.000","reclat":"42.383330","reclong":"-2.500000","geolocation":{"type":"Point","coordinates":[-2.5,42.38333]}}
,{"name":"Barnaul","id":"4947","nametype":"Valid","recclass":"H5","mass":"23.2","fall":"Fell","year":"1904-01-01T00:00:00.000","reclat":"52.733330","reclong":"84.083330","geolocation":{"type":"Point","coordinates":[84.08333,52.73333]}}
,{"name":"Barntrup","id":"4948","nametype":"Valid","recclass":"LL4","mass":"17","fall":"Fell","year":"1886-01-01T00:00:00.000","reclat":"52.000000","reclong":"9.100000","geolocation":{"type":"Point","coordinates":[9.1,52]}}
,{"name":"Baroti","id":"4949","nametype":"Valid","recclass":"L6","mass":"4500","fall":"Fell","year":"1910-01-01T00:00:00.000","reclat":"31.616670","reclong":"76.800000","geolocation":{"type":"Point","coordinates":[76.8,31.61667]}}
,{"name":"Barwell","id":"4954","nametype":"Valid","recclass":"L5","mass":"44000","fall":"Fell","year":"1965-01-01T00:00:00.000","reclat":"52.565280","reclong":"-1.339720","geolocation":{"type":"Point","coordinates":[-1.33972,52.56528]}}
,{"name":"Bassikounou","id":"44876","nametype":"Valid","recclass":"H5","mass":"29560","fall":"Fell","year":"2006-01-01T00:00:00.000","reclat":"15.783330","reclong":"-5.900000","geolocation":{"type":"Point","coordinates":[-5.9,15.78333]}}
,{"name":"Baszkówka","id":"4957","nametype":"Valid","recclass":"L5","mass":"15500","fall":"Fell","year":"1994-01-01T00:00:00.000","reclat":"52.033330","reclong":"20.935830","geolocation":{"type":"Point","coordinates":[20.93583,52.03333]}}
,{"name":"Bath","id":"4974","nametype":"Valid","recclass":"H4","mass":"21000","fall":"Fell","year":"1892-01-01T00:00:00.000","reclat":"45.416670","reclong":"-98.316670","geolocation":{"type":"Point","coordinates":[-98.31667,45.41667]},":@computed_region_cbhk_fwbd":"21",":@computed_region_nnqa_25f4":"662"}
,{"name":"Bath Furnace","id":"4975","nametype":"Valid","recclass":"L6","mass":"86000","fall":"Fell","year":"1902-01-01T00:00:00.000","reclat":"38.250000","reclong":"-83.750000","geolocation":{"type":"Point","coordinates":[-83.75,38.25]},":@computed_region_cbhk_fwbd":"36",":@computed_region_nnqa_25f4":"1921"}
,{"name":"Battle Mountain","id":"56133","nametype":"Valid","recclass":"L6","mass":"2900","fall":"Fell","year":"2012-01-01T00:00:00.000","reclat":"40.668130","reclong":"-117.189130","geolocation":{"type":"Point","coordinates":[-117.18913,40.66813]},":@computed_region_cbhk_fwbd":"10",":@computed_region_nnqa_25f4":"2397"}
,{"name":"Bawku","id":"4976","nametype":"Valid","recclass":"LL5","mass":"1557","fall":"Fell","year":"1989-01-01T00:00:00.000","reclat":"11.083330","reclong":"-0.183330","geolocation":{"type":"Point","coordinates":[-0.18333,11.08333]}}
,{"name":"Baxter","id":"4977","nametype":"Valid","recclass":"L6","mass":"611","fall":"Fell","year":"1916-01-01T00:00:00.000","reclat":"36.750000","reclong":"-93.500000","geolocation":{"type":"Point","coordinates":[-93.5,36.75]},":@computed_region_cbhk_fwbd":"18",":@computed_region_nnqa_25f4":"2216"}
,{"name":"Beardsley","id":"4984","nametype":"Valid","recclass":"H5","mass":"16000","fall":"Fell","year":"1929-01-01T00:00:00.000","reclat":"39.800000","reclong":"-101.200000","geolocation":{"type":"Point","coordinates":[-101.2,39.8]},":@computed_region_cbhk_fwbd":"17",":@computed_region_nnqa_25f4":"1285"}
,{"name":"Beaver Creek","id":"4986","nametype":"Valid","recclass":"H5","mass":"14000","fall":"Fell","year":"1893-01-01T00:00:00.000","reclat":"51.166670","reclong":"-117.333330","geolocation":{"type":"Point","coordinates":[-117.33333,51.16667]}}
,{"name":"Beddgelert","id":"4993","nametype":"Valid","recclass":"H5","mass":"794","fall":"Fell","year":"1949-01-01T00:00:00.000","reclat":"53.016670","reclong":"-4.100000","geolocation":{"type":"Point","coordinates":[-4.1,53.01667]}}
,{"name":"Bells","id":"5005","nametype":"Valid","recclass":"C2-ung","mass":"375","fall":"Fell","year":"1961-01-01T00:00:00.000","reclat":"33.600000","reclong":"-96.466670","geolocation":{"type":"Point","coordinates":[-96.46667,33.6]},":@computed_region_cbhk_fwbd":"23",":@computed_region_nnqa_25f4":"1978"}
,{"name":"Belville","id":"5009","nametype":"Valid","recclass":"OC","fall":"Fell","year":"1937-01-01T00:00:00.000","reclat":"-32.333330","reclong":"-64.866670","geolocation":{"type":"Point","coordinates":[-64.86667,-32.33333]}}
,{"name":"Benares (a)","id":"5011","nametype":"Valid","recclass":"LL4","mass":"3700","fall":"Fell","year":"1798-01-01T00:00:00.000","reclat":"25.366670","reclong":"82.916670","geolocation":{"type":"Point","coordinates":[82.91667,25.36667]}}
,{"name":"Benguerir","id":"30443","nametype":"Valid","recclass":"LL6","mass":"25000","fall":"Fell","year":"2004-01-01T00:00:00.000","reclat":"32.250000","reclong":"-8.150000","geolocation":{"type":"Point","coordinates":[-8.15,32.25]}}
,{"name":"Beni M'hira","id":"5018","nametype":"Valid","recclass":"L6","mass":"19000","fall":"Fell","year":"2001-01-01T00:00:00.000","reclat":"32.866670","reclong":"10.800000","geolocation":{"type":"Point","coordinates":[10.8,32.86667]}}
,{"name":"Benld","id":"5021","nametype":"Valid","recclass":"H6","mass":"1770.5","fall":"Fell","year":"1938-01-01T00:00:00.000","reclat":"39.083330","reclong":"-89.150000","geolocation":{"type":"Point","coordinates":[-89.15,39.08333]},":@computed_region_cbhk_fwbd":"34",":@computed_region_nnqa_25f4":"1869"}
,{"name":"Benoni","id":"5023","nametype":"Valid","recclass":"H6","mass":"3880","fall":"Fell","year":"1943-01-01T00:00:00.000","reclat":"-26.166670","reclong":"28.416670","geolocation":{"type":"Point","coordinates":[28.41667,-26.16667]}}
,{"name":"Bensour","id":"5024","nametype":"Valid","recclass":"LL6","mass":"45000","fall":"Fell","year":"2002-01-01T00:00:00.000","reclat":"30.000000","reclong":"-7.000000","geolocation":{"type":"Point","coordinates":[-7,30]}}
,{"name":"Benton","id":"5026","nametype":"Valid","recclass":"LL6","mass":"2840","fall":"Fell","year":"1949-01-01T00:00:00.000","reclat":"45.950000","reclong":"-67.550000","geolocation":{"type":"Point","coordinates":[-67.55,45.95]}}
,{"name":"Berduc","id":"48975","nametype":"Valid","recclass":"L6","mass":"270","fall":"Fell","year":"2008-01-01T00:00:00.000","reclat":"-31.910000","reclong":"-58.328330","geolocation":{"type":"Point","coordinates":[-58.32833,-31.91]}}
,{"name":"Béréba","id":"5028","nametype":"Valid","recclass":"Eucrite-mmict","mass":"18000","fall":"Fell","year":"1924-01-01T00:00:00.000","reclat":"11.650000","reclong":"-3.650000","geolocation":{"type":"Point","coordinates":[-3.65,11.65]}}
,{"name":"Berlanguillas","id":"5029","nametype":"Valid","recclass":"L6","mass":"1440","fall":"Fell","year":"1811-01-01T00:00:00.000","reclat":"41.683330","reclong":"-3.800000","geolocation":{"type":"Point","coordinates":[-3.8,41.68333]}}
,{"name":"Berthoud","id":"47355","nametype":"Valid","recclass":"Eucrite-mmict","mass":"960","fall":"Fell","year":"2004-01-01T00:00:00.000","reclat":"40.305830","reclong":"-105.023250","geolocation":{"type":"Point","coordinates":[-105.02325,40.30583]},":@computed_region_cbhk_fwbd":"9",":@computed_region_nnqa_25f4":"1072"}
,{"name":"Bethlehem","id":"5032","nametype":"Valid","recclass":"H","mass":"13.9","fall":"Fell","year":"1859-01-01T00:00:00.000","reclat":"42.533330","reclong":"-73.833330","geolocation":{"type":"Point","coordinates":[-73.83333,42.53333]},":@computed_region_cbhk_fwbd":"47",":@computed_region_nnqa_25f4":"2030"}
,{"name":"Beuste","id":"5034","nametype":"Valid","recclass":"L5","mass":"2000","fall":"Fell","year":"1859-01-01T00:00:00.000","reclat":"43.216670","reclong":"-0.233330","geolocation":{"type":"Point","coordinates":[-0.23333,43.21667]}}
,{"name":"Beyrout","id":"5035","nametype":"Valid","recclass":"LL3.8","mass":"1100","fall":"Fell","year":"1921-01-01T00:00:00.000","reclat":"33.883330","reclong":"35.500000","geolocation":{"type":"Point","coordinates":[35.5,33.88333]}}
,{"name":"Bhagur","id":"5037","nametype":"Valid","recclass":"L6","mass":"18","fall":"Fell","year":"1877-01-01T00:00:00.000","reclat":"20.883330","reclong":"74.833330","geolocation":{"type":"Point","coordinates":[74.83333,20.88333]}}
,{"name":"Bhawad","id":"36591","nametype":"Valid","recclass":"LL6","mass":"678","fall":"Fell","year":"2002-01-01T00:00:00.000","reclat":"26.508330","reclong":"73.115280","geolocation":{"type":"Point","coordinates":[73.11528,26.50833]}}
,{"name":"Bherai","id":"5039","nametype":"Valid","recclass":"L6","mass":"100","fall":"Fell","year":"1893-01-01T00:00:00.000","reclat":"20.833330","reclong":"71.466670","geolocation":{"type":"Point","coordinates":[71.46667,20.83333]}}
,{"name":"Bhola","id":"5040","nametype":"Valid","recclass":"LL3-6","mass":"1047","fall":"Fell","year":"1940-01-01T00:00:00.000","reclat":"22.683330","reclong":"90.650000","geolocation":{"type":"Point","coordinates":[90.65,22.68333]}}
,{"name":"Bholghati","id":"5041","nametype":"Valid","recclass":"Howardite","mass":"2500","fall":"Fell","year":"1905-01-01T00:00:00.000","reclat":"22.083330","reclong":"86.900000","geolocation":{"type":"Point","coordinates":[86.9,22.08333]}}
,{"name":"Bialystok","id":"5042","nametype":"Valid","recclass":"Eucrite-pmict","mass":"4000","fall":"Fell","year":"1827-01-01T00:00:00.000","reclat":"53.100000","reclong":"23.200000","geolocation":{"type":"Point","coordinates":[23.2,53.1]}}
,{"name":"Bielokrynitschie","id":"5043","nametype":"Valid","recclass":"H4","mass":"1900","fall":"Fell","year":"1887-01-01T00:00:00.000","reclat":"50.133330","reclong":"27.166670","geolocation":{"type":"Point","coordinates":[27.16667,50.13333]}}
,{"name":"Bilanga","id":"5045","nametype":"Valid","recclass":"Diogenite","mass":"25000","fall":"Fell","year":"1999-01-01T00:00:00.000","reclat":"12.450000","reclong":"-0.083330","geolocation":{"type":"Point","coordinates":[-0.08333,12.45]}}
,{"name":"Binningup","id":"5051","nametype":"Valid","recclass":"H5","mass":"488.1","fall":"Fell","year":"1984-01-01T00:00:00.000","reclat":"-33.156390","reclong":"115.676390","geolocation":{"type":"Point","coordinates":[115.67639,-33.15639]}}
,{"name":"Birni N'konni","id":"5056","nametype":"Valid","recclass":"H4","mass":"560","fall":"Fell","year":"1923-01-01T00:00:00.000","reclat":"13.766670","reclong":"5.300000","geolocation":{"type":"Point","coordinates":[5.3,13.76667]}}
,{"name":"Bishopville","id":"5059","nametype":"Valid","recclass":"Aubrite","mass":"6000","fall":"Fell","year":"1843-01-01T00:00:00.000","reclat":"34.166670","reclong":"-80.283330","geolocation":{"type":"Point","coordinates":[-80.28333,34.16667]},":@computed_region_cbhk_fwbd":"33",":@computed_region_nnqa_25f4":"657"}
,{"name":"Bishunpur","id":"5060","nametype":"Valid","recclass":"LL3.15","mass":"1039","fall":"Fell","year":"1895-01-01T00:00:00.000","reclat":"25.383330","reclong":"82.600000","geolocation":{"type":"Point","coordinates":[82.6,25.38333]}}
,{"name":"Bjelaja Zerkov","id":"5063","nametype":"Valid","recclass":"H6","mass":"1850","fall":"Fell","year":"1796-01-01T00:00:00.000","reclat":"49.783330","reclong":"30.166670","geolocation":{"type":"Point","coordinates":[30.16667,49.78333]}}
,{"name":"Bjurböle","id":"5064","nametype":"Valid","recclass":"L/LL4","mass":"330000","fall":"Fell","year":"1899-01-01T00:00:00.000","reclat":"60.400000","reclong":"25.800000","geolocation":{"type":"Point","coordinates":[25.8,60.4]}}
,{"name":"Black Moshannan Park","id":"5065","nametype":"Valid","recclass":"L5","mass":"705","fall":"Fell","year":"1941-01-01T00:00:00.000","reclat":"40.916670","reclong":"-78.083330","geolocation":{"type":"Point","coordinates":[-78.08333,40.91667]},":@computed_region_cbhk_fwbd":"48",":@computed_region_nnqa_25f4":"2495"}
,{"name":"Blackwell","id":"5068","nametype":"Valid","recclass":"L5","mass":"2381","fall":"Fell","year":"1906-01-01T00:00:00.000","reclat":"36.833330","reclong":"-97.333330","geolocation":{"type":"Point","coordinates":[-97.33333,36.83333]},":@computed_region_cbhk_fwbd":"20",":@computed_region_nnqa_25f4":"2164"}
,{"name":"Blanket","id":"5071","nametype":"Valid","recclass":"L6","mass":"5100","fall":"Fell","year":"1909-01-01T00:00:00.000","reclat":"31.833330","reclong":"-98.833330","geolocation":{"type":"Point","coordinates":[-98.83333,31.83333]},":@computed_region_cbhk_fwbd":"23",":@computed_region_nnqa_25f4":"3063"}
,{"name":"Blansko","id":"5072","nametype":"Valid","recclass":"H6","mass":"470","fall":"Fell","year":"1833-01-01T00:00:00.000","reclat":"49.366670","reclong":"16.633330","geolocation":{"type":"Point","coordinates":[16.63333,49.36667]}}
,{"name":"Bloomington","id":"5076","nametype":"Valid","recclass":"LL6","mass":"67.8","fall":"Fell","year":"1938-01-01T00:00:00.000","reclat":"40.480000","reclong":"-89.004170","geolocation":{"type":"Point","coordinates":[-89.00417,40.48]},":@computed_region_cbhk_fwbd":"34",":@computed_region_nnqa_25f4":"1795"}
,{"name":"Bo Xian","id":"5090","nametype":"Valid","recclass":"LL3.9","mass":"7500","fall":"Fell","year":"1977-01-01T00:00:00.000","reclat":"33.833330","reclong":"115.833330","geolocation":{"type":"Point","coordinates":[115.83333,33.83333]}}
,{"name":"Bocas","id":"5093","nametype":"Valid","recclass":"L6","mass":"56","fall":"Fell","year":"1804-01-01T00:00:00.000","reclat":"23.000000","reclong":"-102.000000","geolocation":{"type":"Point","coordinates":[-102,23]}}
,{"name":"Bogou","id":"5097","nametype":"Valid","recclass":"Iron, IAB-MG","mass":"8800","fall":"Fell","year":"1962-01-01T00:00:00.000","reclat":"12.500000","reclong":"0.700000","geolocation":{"type":"Point","coordinates":[0.7,12.5]}}
,{"name":"Boguslavka","id":"5098","nametype":"Valid","recclass":"Iron, IIAB","mass":"256000","fall":"Fell","year":"1916-01-01T00:00:00.000","reclat":"44.550000","reclong":"131.633330","geolocation":{"type":"Point","coordinates":[131.63333,44.55]}}
,{"name":"Borgo San Donino","id":"5110","nametype":"Valid","recclass":"LL6","mass":"1676","fall":"Fell","year":"1808-01-01T00:00:00.000","reclat":"44.866670","reclong":"10.050000","geolocation":{"type":"Point","coordinates":[10.05,44.86667]}}
,{"name":"Bori","id":"5111","nametype":"Valid","recclass":"L6","mass":"8600","fall":"Fell","year":"1894-01-01T00:00:00.000","reclat":"21.950000","reclong":"78.033330","geolocation":{"type":"Point","coordinates":[78.03333,21.95]}}
,{"name":"Boriskino","id":"5112","nametype":"Valid","recclass":"CM2","mass":"1342","fall":"Fell","year":"1930-01-01T00:00:00.000","reclat":"54.233330","reclong":"52.483330","geolocation":{"type":"Point","coordinates":[52.48333,54.23333]}}
,{"name":"Borkut","id":"5113","nametype":"Valid","recclass":"L5","mass":"7000","fall":"Fell","year":"1852-01-01T00:00:00.000","reclat":"48.150000","reclong":"24.283330","geolocation":{"type":"Point","coordinates":[24.28333,48.15]}}
,{"name":"Borodino","id":"5114","nametype":"Valid","recclass":"H5","mass":"500","fall":"Fell","year":"1812-01-01T00:00:00.000","reclat":"55.466670","reclong":"35.866670","geolocation":{"type":"Point","coordinates":[35.86667,55.46667]}}
,{"name":"Botschetschki","id":"5117","nametype":"Valid","recclass":"L4","mass":"614","fall":"Fell","year":"1823-01-01T00:00:00.000","reclat":"51.333330","reclong":"33.883330","geolocation":{"type":"Point","coordinates":[33.88333,51.33333]}}
,{"name":"Boumdeid (2003)","id":"57168","nametype":"Valid","recclass":"L6","mass":"190","fall":"Fell","year":"2003-01-01T00:00:00.000","reclat":"17.710670","reclong":"-11.371500","geolocation":{"type":"Point","coordinates":[-11.3715,17.71067]}}
,{"name":"Boumdeid (2011)","id":"57167","nametype":"Valid","recclass":"L6","mass":"3599","fall":"Fell","year":"2011-01-01T00:00:00.000","reclat":"17.174930","reclong":"-11.341330","geolocation":{"type":"Point","coordinates":[-11.34133,17.17493]}}
,{"name":"Bovedy","id":"5121","nametype":"Valid","recclass":"L3","mass":"5460","fall":"Fell","year":"1969-01-01T00:00:00.000","reclat":"54.566670","reclong":"-6.333330","geolocation":{"type":"Point","coordinates":[-6.33333,54.56667]}}
,{"name":"Bradford Woods","id":"5128","nametype":"Valid","recclass":"L","mass":"762","fall":"Fell","year":"1886-01-01T00:00:00.000","reclat":"40.500000","reclong":"-80.083330","geolocation":{"type":"Point","coordinates":[-80.08333,40.5]},":@computed_region_cbhk_fwbd":"48",":@computed_region_nnqa_25f4":"2455"}
,{"name":"Braunau","id":"5133","nametype":"Valid","recclass":"Iron, IIAB","mass":"39000","fall":"Fell","year":"1847-01-01T00:00:00.000","reclat":"50.600000","reclong":"16.300000","geolocation":{"type":"Point","coordinates":[16.3,50.6]}}
,{"name":"Breitscheid","id":"5134","nametype":"Valid","recclass":"H5","mass":"1500","fall":"Fell","year":"1956-01-01T00:00:00.000","reclat":"50.666940","reclong":"8.183610","geolocation":{"type":"Point","coordinates":[8.18361,50.66694]}}
,{"name":"Bremervörde","id":"5135","nametype":"Valid","recclass":"H/L3.9","mass":"7250","fall":"Fell","year":"1855-01-01T00:00:00.000","reclat":"53.400000","reclong":"9.100000","geolocation":{"type":"Point","coordinates":[9.1,53.4]}}
,{"name":"Brient","id":"5140","nametype":"Valid","recclass":"Eucrite-pmict","mass":"219","fall":"Fell","year":"1933-01-01T00:00:00.000","reclat":"52.133330","reclong":"59.316670","geolocation":{"type":"Point","coordinates":[59.31667,52.13333]}}
,{"name":"Bruderheim","id":"5156","nametype":"Valid","recclass":"L6","mass":"303000","fall":"Fell","year":"1960-01-01T00:00:00.000","reclat":"53.900000","reclong":"-112.883330","geolocation":{"type":"Point","coordinates":[-112.88333,53.9]}}
,{"name":"Bukhara","id":"30448","nametype":"Valid","recclass":"CV3","mass":"5300","fall":"Fell","year":"2001-01-01T00:00:00.000","reclat":"39.779780","reclong":"64.600350","geolocation":{"type":"Point","coordinates":[64.60035,39.77978]}}
,{"name":"Bulls Run","id":"5163","nametype":"Valid","recclass":"Iron?","mass":"2250","fall":"Fell","year":"1964-01-01T00:00:00.000"}
,{"name":"Bunburra Rockhole","id":"48653","nametype":"Valid","recclass":"Eucrite","mass":"324","fall":"Fell","year":"2007-01-01T00:00:00.000","reclat":"-31.350000","reclong":"129.190000","geolocation":{"type":"Point","coordinates":[129.19,-31.35]}}
,{"name":"Bununu","id":"5165","nametype":"Valid","recclass":"Howardite","mass":"357","fall":"Fell","year":"1942-01-01T00:00:00.000","reclat":"10.016670","reclong":"9.583330","geolocation":{"type":"Point","coordinates":[9.58333,10.01667]}}
,{"name":"Bur-Gheluai","id":"5169","nametype":"Valid","recclass":"H5","mass":"120000","fall":"Fell","year":"1919-01-01T00:00:00.000","reclat":"5.000000","reclong":"48.000000","geolocation":{"type":"Point","coordinates":[48,5]}}
,{"name":"Burnwell","id":"5175","nametype":"Valid","recclass":"H4-an","mass":"1504","fall":"Fell","year":"1990-01-01T00:00:00.000","reclat":"37.621940","reclong":"-82.237220","geolocation":{"type":"Point","coordinates":[-82.23722,37.62194]},":@computed_region_cbhk_fwbd":"36",":@computed_region_nnqa_25f4":"256"}
,{"name":"Bursa","id":"5177","nametype":"Valid","recclass":"L6","mass":"25000","fall":"Fell","year":"1946-01-01T00:00:00.000","reclat":"40.200000","reclong":"29.233330","geolocation":{"type":"Point","coordinates":[29.23333,40.2]}}
,{"name":"Buschhof","id":"5178","nametype":"Valid","recclass":"L6","mass":"5000","fall":"Fell","year":"1863-01-01T00:00:00.000","reclat":"46.450000","reclong":"25.783330","geolocation":{"type":"Point","coordinates":[25.78333,46.45]}}
,{"name":"Bustee","id":"5181","nametype":"Valid","recclass":"Aubrite","mass":"1500","fall":"Fell","year":"1852-01-01T00:00:00.000","reclat":"26.783330","reclong":"82.833330","geolocation":{"type":"Point","coordinates":[82.83333,26.78333]}}
,{"name":"Butsura","id":"5183","nametype":"Valid","recclass":"H6","mass":"29000","fall":"Fell","year":"1861-01-01T00:00:00.000","reclat":"27.083330","reclong":"84.083330","geolocation":{"type":"Point","coordinates":[84.08333,27.08333]}}
,{"name":"Buzzard Coulee","id":"48654","nametype":"Valid","recclass":"H4","mass":"41000","fall":"Fell","year":"2008-01-01T00:00:00.000","reclat":"52.996000","reclong":"-109.848170","geolocation":{"type":"Point","coordinates":[-109.84817,52.996]}}
,{"name":"Cabezo de Mayo","id":"5185","nametype":"Valid","recclass":"L/LL6","mass":"25000","fall":"Fell","year":"1870-01-01T00:00:00.000","reclat":"37.983330","reclong":"-1.166670","geolocation":{"type":"Point","coordinates":[-1.16667,37.98333]}}
,{"name":"Cabin Creek","id":"5186","nametype":"Valid","recclass":"Iron, IIIAB","mass":"48500","fall":"Fell","year":"1886-01-01T00:00:00.000","reclat":"35.500000","reclong":"-93.500000","geolocation":{"type":"Point","coordinates":[-93.5,35.5]},":@computed_region_cbhk_fwbd":"15",":@computed_region_nnqa_25f4":"1029"}
,{"name":"Cacak","id":"5187","nametype":"Valid","recclass":"OC","mass":"212","fall":"Fell","year":"1919-01-01T00:00:00.000","reclat":"43.838890","reclong":"20.333330","geolocation":{"type":"Point","coordinates":[20.33333,43.83889]}}
,{"name":"Cali","id":"45976","nametype":"Valid","recclass":"H/L4","mass":"478","fall":"Fell","year":"2007-01-01T00:00:00.000","reclat":"3.405000","reclong":"-76.510000","geolocation":{"type":"Point","coordinates":[-76.51,3.405]}}
,{"name":"Calivo","id":"5200","nametype":"Valid","recclass":"Stone-uncl","mass":"2400","fall":"Fell","year":"1916-01-01T00:00:00.000","reclat":"11.750000","reclong":"122.333330","geolocation":{"type":"Point","coordinates":[122.33333,11.75]}}
,{"name":"Campos Sales","id":"5249","nametype":"Valid","recclass":"L5","mass":"23680","fall":"Fell","year":"1991-01-01T00:00:00.000","reclat":"-7.033330","reclong":"-40.166670","geolocation":{"type":"Point","coordinates":[-40.16667,-7.03333]}}
,{"name":"Çanakkale","id":"5250","nametype":"Valid","recclass":"L6","mass":"4000","fall":"Fell","year":"1964-01-01T00:00:00.000","reclat":"39.800000","reclong":"26.600000","geolocation":{"type":"Point","coordinates":[26.6,39.8]}}
,{"name":"Cañellas","id":"5251","nametype":"Valid","recclass":"H4","mass":"945","fall":"Fell","year":"1861-01-01T00:00:00.000","reclat":"41.250000","reclong":"1.666670","geolocation":{"type":"Point","coordinates":[1.66667,41.25]}}
,{"name":"Cangas de Onis","id":"5252","nametype":"Valid","recclass":"H5","mass":"34000","fall":"Fell","year":"1866-01-01T00:00:00.000","reclat":"43.383330","reclong":"-5.150000","geolocation":{"type":"Point","coordinates":[-5.15,43.38333]}}
,{"name":"Canon City","id":"5253","nametype":"Valid","recclass":"H6","mass":"1400","fall":"Fell","year":"1973-01-01T00:00:00.000","reclat":"38.470280","reclong":"-105.241390","geolocation":{"type":"Point","coordinates":[-105.24139,38.47028]},":@computed_region_cbhk_fwbd":"9",":@computed_region_nnqa_25f4":"1448"}
,{"name":"Cape Girardeau","id":"5260","nametype":"Valid","recclass":"H6","mass":"2300","fall":"Fell","year":"1846-01-01T00:00:00.000","reclat":"37.266670","reclong":"-89.583330","geolocation":{"type":"Point","coordinates":[-89.58333,37.26667]},":@computed_region_cbhk_fwbd":"18",":@computed_region_nnqa_25f4":"2695"}
,{"name":"Capilla del Monte","id":"5264","nametype":"Valid","recclass":"H6","mass":"750","fall":"Fell","year":"1934-01-01T00:00:00.000","reclat":"-30.883330","reclong":"-64.550000","geolocation":{"type":"Point","coordinates":[-64.55,-30.88333]}}
,{"name":"Carancas","id":"45817","nametype":"Valid","recclass":"H4-5","mass":"342","fall":"Fell","year":"2007-01-01T00:00:00.000","reclat":"-16.664440","reclong":"-69.043890","geolocation":{"type":"Point","coordinates":[-69.04389,-16.66444]}}
,{"name":"Caratash","id":"5265","nametype":"Valid","recclass":"LL6","mass":"8","fall":"Fell","year":"1902-01-01T00:00:00.000","reclat":"38.500000","reclong":"27.000000","geolocation":{"type":"Point","coordinates":[27,38.5]}}
,{"name":"Castalia","id":"5291","nametype":"Valid","recclass":"H5","mass":"7300","fall":"Fell","year":"1874-01-01T00:00:00.000","reclat":"36.083330","reclong":"-78.066670","geolocation":{"type":"Point","coordinates":[-78.06667,36.08333]},":@computed_region_cbhk_fwbd":"37",":@computed_region_nnqa_25f4":"648"}
,{"name":"Castel Berardenga","id":"5292","nametype":"Valid","recclass":"Stone-uncl","fall":"Fell","year":"1791-01-01T00:00:00.000","reclat":"43.350000","reclong":"11.500000","geolocation":{"type":"Point","coordinates":[11.5,43.35]}}
,{"name":"Castine","id":"5293","nametype":"Valid","recclass":"L6","mass":"94","fall":"Fell","year":"1848-01-01T00:00:00.000","reclat":"44.383330","reclong":"-68.750000","geolocation":{"type":"Point","coordinates":[-68.75,44.38333]},":@computed_region_cbhk_fwbd":"49",":@computed_region_nnqa_25f4":"414"}
,{"name":"Castrovillari","id":"5295","nametype":"Valid","recclass":"Stone-uncl","mass":"15000","fall":"Fell","year":"1583-01-01T00:00:00.000","reclat":"39.800000","reclong":"16.200000","geolocation":{"type":"Point","coordinates":[16.2,39.8]}}
,{"name":"Caswell County","id":"5296","nametype":"Valid","recclass":"OC","mass":"1360","fall":"Fell","year":"1810-01-01T00:00:00.000","reclat":"36.500000","reclong":"-79.250000","geolocation":{"type":"Point","coordinates":[-79.25,36.5]},":@computed_region_cbhk_fwbd":"37",":@computed_region_nnqa_25f4":"637"}
,{"name":"Ceniceros","id":"5306","nametype":"Valid","recclass":"L3.7","mass":"1025","fall":"Fell","year":"1988-01-01T00:00:00.000","reclat":"26.466670","reclong":"-105.233330","geolocation":{"type":"Point","coordinates":[-105.23333,26.46667]}}
,{"name":"Centerville","id":"5307","nametype":"Valid","recclass":"H5","mass":"45.6","fall":"Fell","year":"1956-01-01T00:00:00.000","reclat":"43.200000","reclong":"-96.916670","geolocation":{"type":"Point","coordinates":[-96.91667,43.2]},":@computed_region_cbhk_fwbd":"21",":@computed_region_nnqa_25f4":"2684"}
,{"name":"Cereseto","id":"5308","nametype":"Valid","recclass":"H5","mass":"6460","fall":"Fell","year":"1840-01-01T00:00:00.000","reclat":"45.083330","reclong":"8.300000","geolocation":{"type":"Point","coordinates":[8.3,45.08333]}}
,{"name":"Chadong","id":"5313","nametype":"Valid","recclass":"L6","mass":"3700","fall":"Fell","year":"1998-01-01T00:00:00.000","reclat":"28.533330","reclong":"109.316670","geolocation":{"type":"Point","coordinates":[109.31667,28.53333]}}
,{"name":"Chail","id":"5314","nametype":"Valid","recclass":"H6","mass":"0.5","fall":"Fell","year":"1814-01-01T00:00:00.000","reclat":"25.366670","reclong":"81.666670","geolocation":{"type":"Point","coordinates":[81.66667,25.36667]}}
,{"name":"Chainpur","id":"5315","nametype":"Valid","recclass":"LL3.4","mass":"8200","fall":"Fell","year":"1907-01-01T00:00:00.000","reclat":"25.850000","reclong":"83.483330","geolocation":{"type":"Point","coordinates":[83.48333,25.85]}}
,{"name":"Chajari","id":"5316","nametype":"Valid","recclass":"L5","mass":"18300","fall":"Fell","year":"1933-01-01T00:00:00.000","reclat":"-30.783330","reclong":"-58.050000","geolocation":{"type":"Point","coordinates":[-58.05,-30.78333]}}
,{"name":"Chandakapur","id":"5320","nametype":"Valid","recclass":"L5","mass":"8800","fall":"Fell","year":"1838-01-01T00:00:00.000","reclat":"20.266670","reclong":"76.016670","geolocation":{"type":"Point","coordinates":[76.01667,20.26667]}}
,{"name":"Chandpur","id":"5321","nametype":"Valid","recclass":"L6","mass":"1100","fall":"Fell","year":"1885-01-01T00:00:00.000","reclat":"27.283330","reclong":"79.050000","geolocation":{"type":"Point","coordinates":[79.05,27.28333]}}
,{"name":"Changde","id":"5322","nametype":"Valid","recclass":"H5","mass":"1810","fall":"Fell","year":"1977-01-01T00:00:00.000","reclat":"29.083330","reclong":"111.750000","geolocation":{"type":"Point","coordinates":[111.75,29.08333]}}
,{"name":"Chantonnay","id":"5325","nametype":"Valid","recclass":"L6","mass":"31500","fall":"Fell","year":"1812-01-01T00:00:00.000","reclat":"46.683330","reclong":"1.050000","geolocation":{"type":"Point","coordinates":[1.05,46.68333]}}
,{"name":"Charlotte","id":"5328","nametype":"Valid","recclass":"Iron, IVA","mass":"4300","fall":"Fell","year":"1835-01-01T00:00:00.000","reclat":"36.166670","reclong":"-87.333330","geolocation":{"type":"Point","coordinates":[-87.33333,36.16667]},":@computed_region_cbhk_fwbd":"39",":@computed_region_nnqa_25f4":"2007"}
,{"name":"Charsonville","id":"5329","nametype":"Valid","recclass":"H6","mass":"27000","fall":"Fell","year":"1810-01-01T00:00:00.000","reclat":"47.933330","reclong":"1.566670","geolocation":{"type":"Point","coordinates":[1.56667,47.93333]}}
,{"name":"Charwallas","id":"5330","nametype":"Valid","recclass":"H6","mass":"12000","fall":"Fell","year":"1834-01-01T00:00:00.000","reclat":"29.483330","reclong":"75.500000","geolocation":{"type":"Point","coordinates":[75.5,29.48333]}}
,{"name":"Chassigny","id":"5331","nametype":"Valid","recclass":"Martian (chassignite)","mass":"4000","fall":"Fell","year":"1815-01-01T00:00:00.000","reclat":"47.716670","reclong":"5.366670","geolocation":{"type":"Point","coordinates":[5.36667,47.71667]}}
,{"name":"Château-Renard","id":"5332","nametype":"Valid","recclass":"L6","mass":"30000","fall":"Fell","year":"1841-01-01T00:00:00.000","reclat":"47.933330","reclong":"2.916670","geolocation":{"type":"Point","coordinates":[2.91667,47.93333]}}
,{"name":"Chaves","id":"5334","nametype":"Valid","recclass":"Howardite","mass":"2945","fall":"Fell","year":"1925-01-01T00:00:00.000","reclat":"41.933330","reclong":"-7.466670","geolocation":{"type":"Point","coordinates":[-7.46667,41.93333]}}
,{"name":"Chela","id":"5338","nametype":"Valid","recclass":"H4","mass":"2936","fall":"Fell","year":"1988-01-01T00:00:00.000","reclat":"-3.666670","reclong":"32.500000","geolocation":{"type":"Point","coordinates":[32.5,-3.66667]}}
,{"name":"Chelyabinsk","id":"57165","nametype":"Valid","recclass":"LL5","mass":"100000","fall":"Fell","year":"2013-01-01T00:00:00.000","reclat":"54.816670","reclong":"61.116670","geolocation":{"type":"Point","coordinates":[61.11667,54.81667]}}
,{"name":"Chergach ","id":"47347","nametype":"Valid","recclass":"H5","mass":"100000","fall":"Fell","year":"2007-01-01T00:00:00.000","reclat":"23.696390","reclong":"-5.014720","geolocation":{"type":"Point","coordinates":[-5.01472,23.69639]}}
,{"name":"Chernyi Bor","id":"5339","nametype":"Valid","recclass":"H4","mass":"6000","fall":"Fell","year":"1964-01-01T00:00:00.000","reclat":"53.700000","reclong":"30.100000","geolocation":{"type":"Point","coordinates":[30.1,53.7]}}
,{"name":"Cherokee Springs","id":"5340","nametype":"Valid","recclass":"LL6","mass":"8400","fall":"Fell","year":"1933-01-01T00:00:00.000","reclat":"35.033330","reclong":"-81.883330","geolocation":{"type":"Point","coordinates":[-81.88333,35.03333]},":@computed_region_cbhk_fwbd":"33",":@computed_region_nnqa_25f4":"2582"}
,{"name":"Chervettaz","id":"5341","nametype":"Valid","recclass":"L5","mass":"705","fall":"Fell","year":"1901-01-01T00:00:00.000","reclat":"46.550000","reclong":"6.816670","geolocation":{"type":"Point","coordinates":[6.81667,46.55]}}
,{"name":"Chervony Kut","id":"5342","nametype":"Valid","recclass":"Eucrite-mmict","mass":"1700","fall":"Fell","year":"1939-01-01T00:00:00.000","reclat":"50.833330","reclong":"34.000000","geolocation":{"type":"Point","coordinates":[34,50.83333]}}
,{"name":"Chetrinahatti","id":"5344","nametype":"Valid","recclass":"Stone-uncl","mass":"72","fall":"Fell","year":"1880-01-01T00:00:00.000","reclat":"14.500000","reclong":"76.500000","geolocation":{"type":"Point","coordinates":[76.5,14.5]}}
,{"name":"Chiang Khan","id":"5345","nametype":"Valid","recclass":"H6","mass":"367","fall":"Fell","year":"1981-01-01T00:00:00.000","reclat":"17.900000","reclong":"101.633330","geolocation":{"type":"Point","coordinates":[101.63333,17.9]}}
,{"name":"Chicora","id":"5349","nametype":"Valid","recclass":"LL6","mass":"303","fall":"Fell","year":"1938-01-01T00:00:00.000","reclat":"40.933330","reclong":"-79.733330","geolocation":{"type":"Point","coordinates":[-79.73333,40.93333]},":@computed_region_cbhk_fwbd":"48",":@computed_region_nnqa_25f4":"2459"}
,{"name":"Chisenga","id":"5355","nametype":"Valid","recclass":"Iron, IIIAB","mass":"3920","fall":"Fell","year":"1988-01-01T00:00:00.000","reclat":"-10.059440","reclong":"33.395000","geolocation":{"type":"Point","coordinates":[33.395,-10.05944]}}
,{"name":"Chitado","id":"5356","nametype":"Valid","recclass":"L6","fall":"Fell","year":"1966-01-01T00:00:00.000","reclat":"-17.350000","reclong":"13.966670","geolocation":{"type":"Point","coordinates":[13.96667,-17.35]}}
,{"name":"Chitenay","id":"5357","nametype":"Valid","recclass":"L6","mass":"4000","fall":"Fell","year":"1978-01-01T00:00:00.000","reclat":"47.470830","reclong":"0.976670","geolocation":{"type":"Point","coordinates":[0.97667,47.47083]}}
,{"name":"Cilimus","id":"5364","nametype":"Valid","recclass":"L5","mass":"1600","fall":"Fell","year":"1979-01-01T00:00:00.000","reclat":"-6.950000","reclong":"108.100000","geolocation":{"type":"Point","coordinates":[108.1,-6.95]}}
,{"name":"Claxton","id":"5374","nametype":"Valid","recclass":"L6","mass":"1455","fall":"Fell","year":"1984-01-01T00:00:00.000","reclat":"32.102500","reclong":"-81.872780","geolocation":{"type":"Point","coordinates":[-81.87278,32.1025]},":@computed_region_cbhk_fwbd":"31",":@computed_region_nnqa_25f4":"67"}
,{"name":"Clohars","id":"5383","nametype":"Valid","recclass":"L4","mass":"48.6","fall":"Fell","year":"1822-01-01T00:00:00.000"}
,{"name":"Colby (Wisconsin)","id":"5395","nametype":"Valid","recclass":"L6","mass":"104000","fall":"Fell","year":"1917-01-01T00:00:00.000","reclat":"44.900000","reclong":"-90.283330","geolocation":{"type":"Point","coordinates":[-90.28333,44.9]},":@computed_region_cbhk_fwbd":"41",":@computed_region_nnqa_25f4":"877"}
,{"name":"Cold Bokkeveld","id":"5397","nametype":"Valid","recclass":"CM2","mass":"5200","fall":"Fell","year":"1838-01-01T00:00:00.000","reclat":"-33.133330","reclong":"19.383330","geolocation":{"type":"Point","coordinates":[19.38333,-33.13333]}}
,{"name":"Coleman","id":"5401","nametype":"Valid","recclass":"L6","mass":"469","fall":"Fell","year":"1994-01-01T00:00:00.000","reclat":"43.761110","reclong":"-84.507780","geolocation":{"type":"Point","coordinates":[-84.50778,43.76111]},":@computed_region_cbhk_fwbd":"50",":@computed_region_nnqa_25f4":"356"}
,{"name":"Collescipoli","id":"5403","nametype":"Valid","recclass":"H5","mass":"5000","fall":"Fell","year":"1890-01-01T00:00:00.000","reclat":"42.533330","reclong":"12.616670","geolocation":{"type":"Point","coordinates":[12.61667,42.53333]}}
,{"name":"Conquista","id":"5418","nametype":"Valid","recclass":"H4","mass":"20350","fall":"Fell","year":"1965-01-01T00:00:00.000","reclat":"-19.850000","reclong":"-47.550000","geolocation":{"type":"Point","coordinates":[-47.55,-19.85]}}
,{"name":"Cosina","id":"5451","nametype":"Valid","recclass":"H5","mass":"1200","fall":"Fell","year":"1844-01-01T00:00:00.000","reclat":"21.166670","reclong":"-100.866670","geolocation":{"type":"Point","coordinates":[-100.86667,21.16667]}}
,{"name":"Cranganore","id":"5465","nametype":"Valid","recclass":"L6","mass":"1460","fall":"Fell","year":"1917-01-01T00:00:00.000","reclat":"10.200000","reclong":"76.266670","geolocation":{"type":"Point","coordinates":[76.26667,10.2]}}
,{"name":"Crescent","id":"5470","nametype":"Valid","recclass":"CM2","mass":"78.400000000000006","fall":"Fell","year":"1936-01-01T00:00:00.000","reclat":"35.950000","reclong":"-97.583330","geolocation":{"type":"Point","coordinates":[-97.58333,35.95]},":@computed_region_cbhk_fwbd":"20",":@computed_region_nnqa_25f4":"2201"}
,{"name":"Cronstad","id":"5474","nametype":"Valid","recclass":"H5","mass":"3650","fall":"Fell","year":"1877-01-01T00:00:00.000","reclat":"-27.700000","reclong":"27.300000","geolocation":{"type":"Point","coordinates":[27.3,-27.7]}}
,{"name":"Cross Roads","id":"5476","nametype":"Valid","recclass":"H5","mass":"167","fall":"Fell","year":"1892-01-01T00:00:00.000","reclat":"35.633330","reclong":"-78.133330","geolocation":{"type":"Point","coordinates":[-78.13333,35.63333]},":@computed_region_cbhk_fwbd":"37",":@computed_region_nnqa_25f4":"2332"}
,{"name":"Crumlin","id":"5477","nametype":"Valid","recclass":"L5","mass":"4255","fall":"Fell","year":"1902-01-01T00:00:00.000","reclat":"54.616670","reclong":"-6.216670","geolocation":{"type":"Point","coordinates":[-6.21667,54.61667]}}
,{"name":"Cumberland Falls","id":"5496","nametype":"Valid","recclass":"Aubrite","mass":"17000","fall":"Fell","year":"1919-01-01T00:00:00.000","reclat":"36.833330","reclong":"-84.350000","geolocation":{"type":"Point","coordinates":[-84.35,36.83333]},":@computed_region_cbhk_fwbd":"36",":@computed_region_nnqa_25f4":"1426"}
,{"name":"Cynthiana","id":"5500","nametype":"Valid","recclass":"L/LL4","mass":"6000","fall":"Fell","year":"1877-01-01T00:00:00.000","reclat":"38.400000","reclong":"-84.250000","geolocation":{"type":"Point","coordinates":[-84.25,38.4]},":@computed_region_cbhk_fwbd":"36",":@computed_region_nnqa_25f4":"244"}
,{"name":"Dahmani","id":"5504","nametype":"Valid","recclass":"LL6","mass":"18000","fall":"Fell","year":"1981-01-01T00:00:00.000","reclat":"35.616670","reclong":"8.833330","geolocation":{"type":"Point","coordinates":[8.83333,35.61667]}}
,{"name":"Dandapur","id":"5511","nametype":"Valid","recclass":"L6","mass":"5650","fall":"Fell","year":"1878-01-01T00:00:00.000","reclat":"26.916670","reclong":"83.966670","geolocation":{"type":"Point","coordinates":[83.96667,26.91667]}}
,{"name":"Daniel's Kuil","id":"5513","nametype":"Valid","recclass":"EL6","mass":"1064","fall":"Fell","year":"1868-01-01T00:00:00.000","reclat":"-28.200000","reclong":"24.566670","geolocation":{"type":"Point","coordinates":[24.56667,-28.2]}}
,{"name":"Danville","id":"5514","nametype":"Valid","recclass":"L6","mass":"2000","fall":"Fell","year":"1868-01-01T00:00:00.000","reclat":"34.400000","reclong":"-87.066670","geolocation":{"type":"Point","coordinates":[-87.06667,34.4]},":@computed_region_cbhk_fwbd":"29",":@computed_region_nnqa_25f4":"103"}
,{"name":"Darmstadt","id":"6603","nametype":"Valid","recclass":"H5","mass":"100","fall":"Fell","year":"1804-01-01T00:00:00.000","reclat":"49.866670","reclong":"8.650000","geolocation":{"type":"Point","coordinates":[8.65,49.86667]}}
,{"name":"Dashoguz","id":"6604","nametype":"Valid","recclass":"H5","mass":"7000","fall":"Fell","year":"1998-01-01T00:00:00.000","reclat":"41.984440","reclong":"59.685000","geolocation":{"type":"Point","coordinates":[59.685,41.98444]}}
,{"name":"Daule","id":"51559","nametype":"Valid","recclass":"L5","mass":"6580","fall":"Fell","year":"2008-01-01T00:00:00.000","reclat":"-1.870890","reclong":"-79.957560","geolocation":{"type":"Point","coordinates":[-79.95756,-1.87089]}}
,{"name":"De Cewsville","id":"6621","nametype":"Valid","recclass":"H6","mass":"340","fall":"Fell","year":"1887-01-01T00:00:00.000","reclat":"43.000000","reclong":"-80.000000","geolocation":{"type":"Point","coordinates":[-80,43]}}
,{"name":"Deal","id":"6634","nametype":"Valid","recclass":"L6","mass":"28","fall":"Fell","year":"1829-01-01T00:00:00.000","reclat":"40.250000","reclong":"-74.000000","geolocation":{"type":"Point","coordinates":[-74,40.25]},":@computed_region_nnqa_25f4":"2491"}
,{"name":"Delhi","id":"6642","nametype":"Valid","recclass":"L5","mass":"0.8","fall":"Fell","year":"1897-01-01T00:00:00.000","reclat":"28.566670","reclong":"77.250000","geolocation":{"type":"Point","coordinates":[77.25,28.56667]}}
,{"name":"Demina","id":"6649","nametype":"Valid","recclass":"L6","mass":"16400","fall":"Fell","year":"1911-01-01T00:00:00.000","reclat":"51.466670","reclong":"84.766670","geolocation":{"type":"Point","coordinates":[84.76667,51.46667]}}
,{"name":"Denver","id":"6660","nametype":"Valid","recclass":"L6","mass":"230","fall":"Fell","year":"1967-01-01T00:00:00.000","reclat":"39.782500","reclong":"-104.930560","geolocation":{"type":"Point","coordinates":[-104.93056,39.7825]},":@computed_region_cbhk_fwbd":"9",":@computed_region_nnqa_25f4":"1444"}
,{"name":"Dergaon","id":"6664","nametype":"Valid","recclass":"H5","mass":"12500","fall":"Fell","year":"2001-01-01T00:00:00.000","reclat":"26.683330","reclong":"93.866670","geolocation":{"type":"Point","coordinates":[93.86667,26.68333]}}
,{"name":"Desuri","id":"6693","nametype":"Valid","recclass":"H6","mass":"25400","fall":"Fell","year":"1962-01-01T00:00:00.000","reclat":"25.733330","reclong":"73.616670","geolocation":{"type":"Point","coordinates":[73.61667,25.73333]}}
,{"name":"Devgaon","id":"6694","nametype":"Valid","recclass":"H3.8","mass":"12000","fall":"Fell","year":"2001-01-01T00:00:00.000","reclat":"19.000000","reclong":"81.000000","geolocation":{"type":"Point","coordinates":[81,19]}}
,{"name":"Devri-Khera","id":"6696","nametype":"Valid","recclass":"L6","mass":"1140","fall":"Fell","year":"1994-01-01T00:00:00.000","reclat":"24.225000","reclong":"76.525000","geolocation":{"type":"Point","coordinates":[76.525,24.225]}}
,{"name":"Dhajala","id":"6698","nametype":"Valid","recclass":"H3.8","mass":"45000","fall":"Fell","year":"1976-01-01T00:00:00.000","reclat":"22.377780","reclong":"71.427220","geolocation":{"type":"Point","coordinates":[71.42722,22.37778]}}
,{"name":"Dharwar","id":"6699","nametype":"Valid","recclass":"OC","mass":"1800","fall":"Fell","year":"1848-01-01T00:00:00.000","reclat":"14.883330","reclong":"75.600000","geolocation":{"type":"Point","coordinates":[75.6,14.88333]}}
,{"name":"Dhurmsala","id":"7640","nametype":"Valid","recclass":"LL6","mass":"32000","fall":"Fell","year":"1860-01-01T00:00:00.000","reclat":"32.233330","reclong":"76.466670","geolocation":{"type":"Point","coordinates":[76.46667,32.23333]}}
,{"name":"Didim","id":"47350","nametype":"Valid","recclass":"H3-5","mass":"3396","fall":"Fell","year":"2007-01-01T00:00:00.000","reclat":"37.351720","reclong":"27.329970","geolocation":{"type":"Point","coordinates":[27.32997,37.35172]}}
,{"name":"Diep River","id":"7642","nametype":"Valid","recclass":"L6","mass":"1000","fall":"Fell","year":"1906-01-01T00:00:00.000","reclat":"-33.750000","reclong":"18.566670","geolocation":{"type":"Point","coordinates":[18.56667,-33.75]}}
,{"name":"Distrito Quebracho","id":"7649","nametype":"Valid","recclass":"H4","mass":"400","fall":"Fell","year":"1957-01-01T00:00:00.000","reclat":"-31.883330","reclong":"-60.466670","geolocation":{"type":"Point","coordinates":[-60.46667,-31.88333]}}
,{"name":"Djati-Pengilon","id":"7652","nametype":"Valid","recclass":"H6","mass":"166000","fall":"Fell","year":"1884-01-01T00:00:00.000","reclat":"-7.500000","reclong":"111.500000","geolocation":{"type":"Point","coordinates":[111.5,-7.5]}}
,{"name":"Djermaia","id":"7656","nametype":"Valid","recclass":"H","mass":"3950","fall":"Fell","year":"1961-01-01T00:00:00.000","reclat":"12.733330","reclong":"15.050000","geolocation":{"type":"Point","coordinates":[15.05,12.73333]}}
,{"name":"Djoumine","id":"7657","nametype":"Valid","recclass":"H5-6","mass":"10000","fall":"Fell","year":"1999-01-01T00:00:00.000","reclat":"36.950000","reclong":"9.550000","geolocation":{"type":"Point","coordinates":[9.55,36.95]}}
,{"name":"Dokachi","id":"7658","nametype":"Valid","recclass":"H5","mass":"3840","fall":"Fell","year":"1903-01-01T00:00:00.000","reclat":"23.500000","reclong":"90.333330","geolocation":{"type":"Point","coordinates":[90.33333,23.5]}}
,{"name":"Dolgovoli","id":"7659","nametype":"Valid","recclass":"L6","mass":"1600","fall":"Fell","year":"1864-01-01T00:00:00.000","reclat":"50.750000","reclong":"25.300000","geolocation":{"type":"Point","coordinates":[25.3,50.75]}}
,{"name":"Domanitch","id":"7661","nametype":"Valid","recclass":"L5","mass":"438","fall":"Fell","year":"1907-01-01T00:00:00.000","reclat":"40.000000","reclong":"29.000000","geolocation":{"type":"Point","coordinates":[29,40]}}
,{"name":"Dong Ujimqin Qi","id":"7706","nametype":"Valid","recclass":"Mesosiderite","mass":"128800","fall":"Fell","year":"1995-01-01T00:00:00.000","reclat":"45.500000","reclong":"119.033330","geolocation":{"type":"Point","coordinates":[119.03333,45.5]}}
,{"name":"Donga Kohrod","id":"7707","nametype":"Valid","recclass":"H6","mass":"230","fall":"Fell","year":"1899-01-01T00:00:00.000","reclat":"21.866670","reclong":"82.450000","geolocation":{"type":"Point","coordinates":[82.45,21.86667]}}
,{"name":"Dongtai","id":"7708","nametype":"Valid","recclass":"LL6","mass":"5500","fall":"Fell","year":"1970-01-01T00:00:00.000","reclat":"32.916670","reclong":"120.783330","geolocation":{"type":"Point","coordinates":[120.78333,32.91667]}}
,{"name":"Doroninsk","id":"7718","nametype":"Valid","recclass":"H5-7","mass":"3891","fall":"Fell","year":"1805-01-01T00:00:00.000","reclat":"51.200000","reclong":"112.300000","geolocation":{"type":"Point","coordinates":[112.3,51.2]}}
,{"name":"Dosso","id":"7722","nametype":"Valid","recclass":"L6","mass":"1250","fall":"Fell","year":"1962-01-01T00:00:00.000","reclat":"13.050000","reclong":"3.166670","geolocation":{"type":"Point","coordinates":[3.16667,13.05]}}
,{"name":"Douar Mghila","id":"7723","nametype":"Valid","recclass":"LL6","mass":"1161","fall":"Fell","year":"1932-01-01T00:00:00.000","reclat":"32.333330","reclong":"-6.300000","geolocation":{"type":"Point","coordinates":[-6.3,32.33333]}}
,{"name":"Dowa","id":"7725","nametype":"Valid","recclass":"Stone-uncl","mass":"642","fall":"Fell","year":"1976-01-01T00:00:00.000","reclat":"-13.666670","reclong":"33.916670","geolocation":{"type":"Point","coordinates":[33.91667,-13.66667]}}
,{"name":"Drake Creek","id":"7728","nametype":"Valid","recclass":"L6","mass":"5000","fall":"Fell","year":"1827-01-01T00:00:00.000","reclat":"36.400000","reclong":"-86.500000","geolocation":{"type":"Point","coordinates":[-86.5,36.4]},":@computed_region_cbhk_fwbd":"39",":@computed_region_nnqa_25f4":"2115"}
,{"name":"Dresden (Ontario)","id":"7731","nametype":"Valid","recclass":"H6","mass":"47700","fall":"Fell","year":"1939-01-01T00:00:00.000","reclat":"42.520000","reclong":"-82.260000","geolocation":{"type":"Point","coordinates":[-82.26,42.52]}}
,{"name":"Dubrovnik","id":"7736","nametype":"Valid","recclass":"L3-6","mass":"1900","fall":"Fell","year":"1951-01-01T00:00:00.000","reclat":"42.458330","reclong":"18.441670","geolocation":{"type":"Point","coordinates":[18.44167,42.45833]}}
,{"name":"Dunbogan","id":"7743","nametype":"Valid","recclass":"L6","mass":"30","fall":"Fell","year":"1999-01-01T00:00:00.000","reclat":"-31.666670","reclong":"152.833330","geolocation":{"type":"Point","coordinates":[152.83333,-31.66667]}}
,{"name":"Dundrum","id":"7745","nametype":"Valid","recclass":"H5","mass":"2270","fall":"Fell","year":"1865-01-01T00:00:00.000","reclat":"52.550000","reclong":"-8.033330","geolocation":{"type":"Point","coordinates":[-8.03333,52.55]}}
,{"name":"Dunhua","id":"7749","nametype":"Valid","recclass":"Stone-uncl","fall":"Fell","year":"1976-01-01T00:00:00.000","reclat":"43.333330","reclong":"128.250000","geolocation":{"type":"Point","coordinates":[128.25,43.33333]}}
,{"name":"Durala","id":"7750","nametype":"Valid","recclass":"L6","mass":"13200","fall":"Fell","year":"1815-01-01T00:00:00.000","reclat":"30.300000","reclong":"76.633330","geolocation":{"type":"Point","coordinates":[76.63333,30.3]}}
,{"name":"Duruma","id":"7752","nametype":"Valid","recclass":"L6","mass":"577","fall":"Fell","year":"1853-01-01T00:00:00.000","reclat":"-4.000000","reclong":"39.500000","geolocation":{"type":"Point","coordinates":[39.5,-4]}}
,{"name":"Duwun","id":"7754","nametype":"Valid","recclass":"L6","mass":"2117","fall":"Fell","year":"1943-01-01T00:00:00.000","reclat":"33.433330","reclong":"127.266670","geolocation":{"type":"Point","coordinates":[127.26667,33.43333]}}
,{"name":"Dwaleni","id":"7755","nametype":"Valid","recclass":"H4-6","mass":"3230","fall":"Fell","year":"1970-01-01T00:00:00.000","reclat":"-27.200000","reclong":"31.316670","geolocation":{"type":"Point","coordinates":[31.31667,-27.2]}}
,{"name":"Dyalpur","id":"7757","nametype":"Valid","recclass":"Ureilite","mass":"300","fall":"Fell","year":"1872-01-01T00:00:00.000","reclat":"26.250000","reclong":"82.000000","geolocation":{"type":"Point","coordinates":[82,26.25]}}
,{"name":"Dyarrl Island","id":"7758","nametype":"Valid","recclass":"Mesosiderite-A1","mass":"188","fall":"Fell","year":"1933-01-01T00:00:00.000","reclat":"-3.000000","reclong":"151.000000","geolocation":{"type":"Point","coordinates":[151,-3]}}
,{"name":"Eagle","id":"7760","nametype":"Valid","recclass":"EL6","mass":"10000","fall":"Fell","year":"1947-01-01T00:00:00.000","reclat":"40.781670","reclong":"-96.471670","geolocation":{"type":"Point","coordinates":[-96.47167,40.78167]},":@computed_region_cbhk_fwbd":"19",":@computed_region_nnqa_25f4":"462"}
,{"name":"Ehole","id":"7774","nametype":"Valid","recclass":"H5","mass":"2400","fall":"Fell","year":"1961-01-01T00:00:00.000","reclat":"-17.300000","reclong":"15.833330","geolocation":{"type":"Point","coordinates":[15.83333,-17.3]}}
,{"name":"Eichstädt","id":"7775","nametype":"Valid","recclass":"H5","mass":"3000","fall":"Fell","year":"1785-01-01T00:00:00.000","reclat":"48.900000","reclong":"11.216670","geolocation":{"type":"Point","coordinates":[11.21667,48.9]}}
,{"name":"Ekeby","id":"7776","nametype":"Valid","recclass":"H4","mass":"3336","fall":"Fell","year":"1939-01-01T00:00:00.000","reclat":"56.033330","reclong":"13.000000","geolocation":{"type":"Point","coordinates":[13,56.03333]}}
,{"name":"Ekh Khera","id":"7777","nametype":"Valid","recclass":"H6","mass":"840","fall":"Fell","year":"1916-01-01T00:00:00.000","reclat":"28.266670","reclong":"78.783330","geolocation":{"type":"Point","coordinates":[78.78333,28.26667]}}
,{"name":"El Idrissia","id":"7807","nametype":"Valid","recclass":"L6","mass":"10000","fall":"Fell","year":"1989-01-01T00:00:00.000","reclat":"34.416670","reclong":"3.250000","geolocation":{"type":"Point","coordinates":[3.25,34.41667]}}
,{"name":"El Paso de Aguila","id":"45977","nametype":"Valid","recclass":"H5","mass":"17226","fall":"Fell","year":"1977-01-01T00:00:00.000","reclat":"25.370000","reclong":"-97.370000","geolocation":{"type":"Point","coordinates":[-97.37,25.37]}}
,{"name":"El Tigre","id":"7819","nametype":"Valid","recclass":"L6","mass":"5000","fall":"Fell","year":"1993-01-01T00:00:00.000","reclat":"19.967220","reclong":"-103.051670","geolocation":{"type":"Point","coordinates":[-103.05167,19.96722]}}
,{"name":"Elbert","id":"7822","nametype":"Valid","recclass":"LL6","mass":"680.5","fall":"Fell","year":"1998-01-01T00:00:00.000","reclat":"39.246670","reclong":"-104.588170","geolocation":{"type":"Point","coordinates":[-104.58817,39.24667]},":@computed_region_cbhk_fwbd":"9",":@computed_region_nnqa_25f4":"88"}
,{"name":"Elbogen","id":"7823","nametype":"Valid","recclass":"Iron, IID","mass":"107000","fall":"Fell","year":"1400-01-01T00:00:00.000","reclat":"50.183330","reclong":"12.733330","geolocation":{"type":"Point","coordinates":[12.73333,50.18333]}}
,{"name":"Elenovka","id":"7824","nametype":"Valid","recclass":"L5","mass":"54640","fall":"Fell","year":"1951-01-01T00:00:00.000","reclat":"47.833330","reclong":"37.666670","geolocation":{"type":"Point","coordinates":[37.66667,47.83333]}}
,{"name":"Ellemeet","id":"10019","nametype":"Valid","recclass":"Diogenite","mass":"1470","fall":"Fell","year":"1925-01-01T00:00:00.000","reclat":"51.750000","reclong":"4.000000","geolocation":{"type":"Point","coordinates":[4,51.75]}}
,{"name":"Emmaville","id":"10033","nametype":"Valid","recclass":"Eucrite-mmict","mass":"127","fall":"Fell","year":"1900-01-01T00:00:00.000","reclat":"-29.466670","reclong":"151.616670","geolocation":{"type":"Point","coordinates":[151.61667,-29.46667]}}
,{"name":"Enshi","id":"10038","nametype":"Valid","recclass":"H5","mass":"8000","fall":"Fell","year":"1974-01-01T00:00:00.000","reclat":"30.300000","reclong":"109.500000","geolocation":{"type":"Point","coordinates":[109.5,30.3]}}
,{"name":"Ensisheim","id":"10039","nametype":"Valid","recclass":"LL6","mass":"127000","fall":"Fell","year":"1492-01-01T00:00:00.000","reclat":"47.866670","reclong":"7.350000","geolocation":{"type":"Point","coordinates":[7.35,47.86667]}}
,{"name":"Épinal","id":"10041","nametype":"Valid","recclass":"H5","mass":"277","fall":"Fell","year":"1822-01-01T00:00:00.000","reclat":"48.183330","reclong":"6.466670","geolocation":{"type":"Point","coordinates":[6.46667,48.18333]}}
,{"name":"Erakot","id":"10042","nametype":"Valid","recclass":"CM2","mass":"113","fall":"Fell","year":"1940-01-01T00:00:00.000","reclat":"19.033330","reclong":"81.891670","geolocation":{"type":"Point","coordinates":[81.89167,19.03333]}}
,{"name":"Erevan","id":"10043","nametype":"Valid","recclass":"Howardite","mass":"107.2","fall":"Fell","year":"1911-01-01T00:00:00.000","reclat":"40.300000","reclong":"44.500000","geolocation":{"type":"Point","coordinates":[44.5,40.3]}}
,{"name":"Ergheo","id":"10044","nametype":"Valid","recclass":"L5","mass":"20000","fall":"Fell","year":"1889-01-01T00:00:00.000","reclat":"1.166670","reclong":"44.166670","geolocation":{"type":"Point","coordinates":[44.16667,1.16667]}}
,{"name":"Erxleben","id":"10049","nametype":"Valid","recclass":"H6","mass":"2250","fall":"Fell","year":"1812-01-01T00:00:00.000","reclat":"52.216670","reclong":"11.250000","geolocation":{"type":"Point","coordinates":[11.25,52.21667]}}
,{"name":"Esnandes","id":"10051","nametype":"Valid","recclass":"L6","mass":"1500","fall":"Fell","year":"1837-01-01T00:00:00.000","reclat":"46.250000","reclong":"-1.100000","geolocation":{"type":"Point","coordinates":[-1.1,46.25]}}
,{"name":"Essebi","id":"10055","nametype":"Valid","recclass":"C2-ung","mass":"500","fall":"Fell","year":"1957-01-01T00:00:00.000","reclat":"2.883330","reclong":"30.833330","geolocation":{"type":"Point","coordinates":[30.83333,2.88333]}}
,{"name":"Estherville","id":"10059","nametype":"Valid","recclass":"Mesosiderite-A3/4","mass":"320000","fall":"Fell","year":"1879-01-01T00:00:00.000","reclat":"43.416670","reclong":"-94.833330","geolocation":{"type":"Point","coordinates":[-94.83333,43.41667]},":@computed_region_cbhk_fwbd":"16",":@computed_region_nnqa_25f4":"277"}
,{"name":"Farmington","id":"10074","nametype":"Valid","recclass":"L5","mass":"89400","fall":"Fell","year":"1890-01-01T00:00:00.000","reclat":"39.750000","reclong":"-97.033330","geolocation":{"type":"Point","coordinates":[-97.03333,39.75]},":@computed_region_cbhk_fwbd":"17",":@computed_region_nnqa_25f4":"1300"}
,{"name":"Farmville","id":"10075","nametype":"Valid","recclass":"H4","mass":"56000","fall":"Fell","year":"1934-01-01T00:00:00.000","reclat":"35.550000","reclong":"-77.533330","geolocation":{"type":"Point","coordinates":[-77.53333,35.55]},":@computed_region_cbhk_fwbd":"37",":@computed_region_nnqa_25f4":"2439"}
,{"name":"Favars","id":"10078","nametype":"Valid","recclass":"H5","mass":"1500","fall":"Fell","year":"1844-01-01T00:00:00.000","reclat":"44.383330","reclong":"2.816670","geolocation":{"type":"Point","coordinates":[2.81667,44.38333]}}
,{"name":"Fayetteville","id":"10079","nametype":"Valid","recclass":"H4","mass":"2360","fall":"Fell","year":"1934-01-01T00:00:00.000","reclat":"36.050000","reclong":"-94.166670","geolocation":{"type":"Point","coordinates":[-94.16667,36.05]},":@computed_region_cbhk_fwbd":"15",":@computed_region_nnqa_25f4":"70"}
,{"name":"Feid Chair","id":"10080","nametype":"Valid","recclass":"H4","mass":"380","fall":"Fell","year":"1875-01-01T00:00:00.000","reclat":"36.883330","reclong":"8.450000","geolocation":{"type":"Point","coordinates":[8.45,36.88333]}}
,{"name":"Felix","id":"10081","nametype":"Valid","recclass":"CO3.3","mass":"3200","fall":"Fell","year":"1900-01-01T00:00:00.000","reclat":"32.533330","reclong":"-87.166670","geolocation":{"type":"Point","coordinates":[-87.16667,32.53333]},":@computed_region_cbhk_fwbd":"29",":@computed_region_nnqa_25f4":"1631"}
,{"name":"Fenghsien-Ku","id":"10086","nametype":"Valid","recclass":"H5","mass":"82","fall":"Fell","year":"1924-01-01T00:00:00.000","reclat":"34.600000","reclong":"116.750000","geolocation":{"type":"Point","coordinates":[116.75,34.6]}}
,{"name":"Tomakovka","id":"24019","nametype":"Valid","recclass":"LL6","mass":"600","fall":"Fell","year":"1905-01-01T00:00:00.000","reclat":"47.850000","reclong":"34.766670","geolocation":{"type":"Point","coordinates":[34.76667,47.85]}}]
